{"type": "FeatureCollection", "features": [{"type": "Feature", "properties": {"Sites": "abei", "state": "ID", "description": "Aberdeen, Idaho Weather Station", "pval": 0.9785930449473924}, "geometry": {"type": "Point", "coordinates": [-112.82667, 42.953333]}}, {"type": "Feature", "properties": {"Sites": "acki", "state": "ID", "description": "INL - Blackfoot,  Idaho  Weather Station", "pval": 0.9936010382152007}, "geometry": {"type": "Point", "coordinates": [-112.3332, 43.18985]}}, {"type": "Feature", "properties": {"Sites": "agko", "state": "OR", "description": "Agency Lake Ranch, Oregon AgriMet Weather Station", "pval": 0.682914886501896}, "geometry": {"type": "Point", "coordinates": [-121.9825, 42.56527]}}, {"type": "Feature", "properties": {"Sites": "ahti", "state": "ID", "description": "Ashton, Idaho AgriMet Weather Station", "pval": 0.9985144744001955}, "geometry": {"type": "Point", "coordinates": [-111.46666, 44.025]}}, {"type": "Feature", "properties": {"Sites": "arao", "state": "OR", "description": "Aurora, Oregon AgriMet Weather Station", "pval": 0.9929025714395373}, "geometry": {"type": "Point", "coordinates": [-122.75027, 45.281940000000006]}}, {"type": "Feature", "properties": {"Sites": "bano", "state": "OR", "description": "Bandon, Oregon AgriMet Weather Station", "pval": 0.9985116534233327}, "geometry": {"type": "Point", "coordinates": [-124.41722, 43.09111]}}, {"type": "Feature", "properties": {"Sites": "bato", "state": "OR", "description": "Beatty, Oregon AgriMet Weather Station", "pval": 0.8594464543163474}, "geometry": {"type": "Point", "coordinates": [-121.27388, 42.47805]}}, {"type": "Feature", "properties": {"Sites": "bewo", "state": "OR", "description": "Bend, Oregon AgriMet Weather Station", "pval": 0.16807947225975048}, "geometry": {"type": "Point", "coordinates": [-121.32027, 44.0475]}}, {"type": "Feature", "properties": {"Sites": "bkvo", "state": "OR", "description": "Baker Valley, Oregon Agrimet Weather Station", "pval": 0.9999584220915559}, "geometry": {"type": "Point", "coordinates": [-117.96276999999999, 44.88277]}}, {"type": "Feature", "properties": {"Sites": "bndw", "state": "WA", "description": "Bonneville Dam AgriMet, Washington AgriMet Weather Station", "pval": 0.9993460986868384}, "geometry": {"type": "Point", "coordinates": [-121.93111, 45.64777]}}, {"type": "Feature", "properties": {"Sites": "boii", "state": "ID", "description": "Boise, Idaho AgriMet Weather Station", "pval": 0.14446373199077867}, "geometry": {"type": "Point", "coordinates": [-116.17693999999999, 43.60027]}}, {"type": "Feature", "properties": {"Sites": "brko", "state": "OR", "description": "Brookings, Oregon AgriMet Weather Station", "pval": 0.9978793294060176}, "geometry": {"type": "Point", "coordinates": [-124.24083, 42.03]}}, {"type": "Feature", "properties": {"Sites": "cdai", "state": "ID", "description": "Coeur d'Alene Fairgrounds, Idaho Weather Station", "pval": 0.9997555609266741}, "geometry": {"type": "Point", "coordinates": [-116.78418, 47.71797]}}, {"type": "Feature", "properties": {"Sites": "chaw", "state": "WA", "description": "Chamokane, Washington AgriMet Weather Station", "pval": 0.9968060569338196}, "geometry": {"type": "Point", "coordinates": [-117.73916000000001, 48.03138]}}, {"type": "Feature", "properties": {"Sites": "chvo", "state": "OR", "description": "Christmas Valley, Oregon AgriMet Weather Station", "pval": 0.49815000844212054}, "geometry": {"type": "Point", "coordinates": [-120.72805, 43.24138]}}, {"type": "Feature", "properties": {"Sites": "cjdw", "state": "WA", "description": "Chief Joseph Dam, Washington AgriMet Weather Station", "pval": 0.36357059810456854}, "geometry": {"type": "Point", "coordinates": [-119.63555, 47.990829999999995]}}, {"type": "Feature", "properties": {"Sites": "ckvy", "state": "ID", "description": "Cokeville, Wyoming AgriMet Weather Station", "pval": 0.998063626240088}, "geometry": {"type": "Point", "coordinates": [-110.95611000000001, 42.077831]}}, {"type": "Feature", "properties": {"Sites": "defo", "state": "OR", "description": "Dee Flat, Oregon AgriMet Weather Station", "pval": 0.9725832090569402}, "geometry": {"type": "Point", "coordinates": [-121.64055, 45.58638]}}, {"type": "Feature", "properties": {"Sites": "deni", "state": "ID", "description": "Dworshak - Dent Acres, Idaho AgriMet Weather Station", "pval": 0.999881027594641}, "geometry": {"type": "Point", "coordinates": [-116.22055, 46.623329999999996]}}, {"type": "Feature", "properties": {"Sites": "drpw", "state": "WA", "description": "Deer Park, Washington Weather Station", "pval": 0.991117939768774}, "geometry": {"type": "Point", "coordinates": [-117.433522, 47.954642]}}, {"type": "Feature", "properties": {"Sites": "dtro", "state": "OR", "description": "Detroit Lake, Oregon AgriMet Weather Station", "pval": 0.9998986064824826}, "geometry": {"type": "Point", "coordinates": [-122.17916000000001, 44.73]}}, {"type": "Feature", "properties": {"Sites": "dwni", "state": "ID", "description": "Downey, Idaho Weather Station", "pval": 0.9965759455894618}, "geometry": {"type": "Point", "coordinates": [-112.12929, 42.43355]}}, {"type": "Feature", "properties": {"Sites": "echo", "state": "OR", "description": "Echo, Oregon AgriMet Weather Station", "pval": 0.6576636731615243}, "geometry": {"type": "Point", "coordinates": [-119.31111000000001, 45.71861]}}, {"type": "Feature", "properties": {"Sites": "fafi", "state": "ID", "description": "Fairfield, Idaho AgriMet Weather Station  ", "pval": 0.9975426221254757}, "geometry": {"type": "Point", "coordinates": [-114.82222, 43.31305]}}, {"type": "Feature", "properties": {"Sites": "fogo", "state": "OR", "description": "Forest Grove, Oregon AgriMet Weather Station", "pval": 0.9916813347065577}, "geometry": {"type": "Point", "coordinates": [-123.08361000000001, 45.55305]}}, {"type": "Feature", "properties": {"Sites": "fthi", "state": "ID", "description": "Fort Hall, Idaho AgriMet Weather Station ", "pval": 0.9992990690491566}, "geometry": {"type": "Point", "coordinates": [-112.43111, 43.07138]}}, {"type": "Feature", "properties": {"Sites": "gcdw", "state": "WA", "description": "Grand Coulee Dam, Washington AgriMet Weather Station", "pval": 0.6184324333042441}, "geometry": {"type": "Point", "coordinates": [-118.95361000000001, 47.94527]}}, {"type": "Feature", "properties": {"Sites": "gdvi", "state": "ID", "description": "Grand View, Idaho AgriMet Weather Station", "pval": 0.8355797300671326}, "geometry": {"type": "Point", "coordinates": [-116.05611, 42.9125]}}, {"type": "Feature", "properties": {"Sites": "gfri", "state": "ID", "description": "Glenns Ferry, Idaho AgriMet Weather Station", "pval": 0.9051153112830482}, "geometry": {"type": "Point", "coordinates": [-115.35694, 42.866659999999996]}}, {"type": "Feature", "properties": {"Sites": "grei", "state": "ID", "description": "Grace, Idaho AgriMet Weather Station", "pval": 0.9514549450797201}, "geometry": {"type": "Point", "coordinates": [-111.73606000000001, 42.514959999999995]}}, {"type": "Feature", "properties": {"Sites": "hami", "state": "ID", "description": "INL - Hamer,  Idaho Weather Station", "pval": 0.5995042718569963}, "geometry": {"type": "Point", "coordinates": [-112.23883300000001, 44.007417]}}, {"type": "Feature", "properties": {"Sites": "hcko", "state": "OR", "description": "Hills Creek Dam Weather Station, Oregon", "pval": 0.46602742391457747}, "geometry": {"type": "Point", "coordinates": [-122.42361100000001, 43.709722]}}, {"type": "Feature", "properties": {"Sites": "hero", "state": "OR", "description": "Hermiston, Oregon AgriMet Weather Station", "pval": 0.46602742391457747}, "geometry": {"type": "Point", "coordinates": [-119.52138000000001, 45.82111]}}, {"type": "Feature", "properties": {"Sites": "hrfo", "state": "OR", "description": "Hereford, Oregon AgriMet Weather Station", "pval": 0.9999506636456328}, "geometry": {"type": "Point", "coordinates": [-118.02, 44.48805]}}, {"type": "Feature", "properties": {"Sites": "hrhw", "state": "WA", "description": "Harrah, Washington AgriMet Weather Station", "pval": 0.0990879321003639}, "geometry": {"type": "Point", "coordinates": [-120.57444, 46.38472]}}, {"type": "Feature", "properties": {"Sites": "hrmo", "state": "OR", "description": "Hermiston R & E Center, Oregon AgriMet Weather Station", "pval": 0.9587666371928687}, "geometry": {"type": "Point", "coordinates": [-119.28333, 45.81944]}}, {"type": "Feature", "properties": {"Sites": "ichi", "state": "ID", "description": "INL - Richfield,  Idaho Weather Station", "pval": 0.9613614509612707}, "geometry": {"type": "Point", "coordinates": [-114.134583, 43.0606]}}, {"type": "Feature", "properties": {"Sites": "ifai", "state": "ID", "description": "INL - Idaho Falls,  Idaho Weather Station", "pval": 0.9838014122921828}, "geometry": {"type": "Point", "coordinates": [-112.050133, 43.504133]}}, {"type": "Feature", "properties": {"Sites": "imbo", "state": "OR", "description": "Imbler, Oregon AgriMet Weather Station", "pval": 0.9999826135151555}, "geometry": {"type": "Point", "coordinates": [-117.96666, 45.43333]}}, {"type": "Feature", "properties": {"Sites": "kflo", "state": "OR", "description": "Klamath Falls, Oregon AgriMet Weather Station", "pval": 0.9852012030928017}, "geometry": {"type": "Point", "coordinates": [-121.755, 42.16472]}}, {"type": "Feature", "properties": {"Sites": "kflw", "state": "WA", "description": "Kettle Falls, Washington AgriMet Weather Station", "pval": 0.7889320373585141}, "geometry": {"type": "Point", "coordinates": [-118.12416, 48.595]}}, {"type": "Feature", "properties": {"Sites": "ktbi", "state": "ID", "description": "Kettle Butte, Idaho Weather Station", "pval": 0.7458689811458394}, "geometry": {"type": "Point", "coordinates": [-112.32583329999999, 43.54861111]}}, {"type": "Feature", "properties": {"Sites": "lako", "state": "OR", "description": "Lakeview, Oregon AgriMet Weather Station", "pval": 0.28634546484854795}, "geometry": {"type": "Point", "coordinates": [-120.52305, 42.12222]}}, {"type": "Feature", "properties": {"Sites": "lbrw", "state": "WA", "description": "Lake Bryan - Rice Bar, Washington AgriMet Weather Station", "pval": 0.9788347055046641}, "geometry": {"type": "Point", "coordinates": [-117.65416, 46.6975]}}, {"type": "Feature", "properties": {"Sites": "legw", "state": "WA", "description": "Legrow, Washington AgriMet Weather Station", "pval": 0.832465154213113}, "geometry": {"type": "Point", "coordinates": [-118.93611000000001, 46.20527]}}, {"type": "Feature", "properties": {"Sites": "libw", "state": "WA", "description": "Liberty Lake, Washington Weather Station", "pval": 0.9937481103352099}, "geometry": {"type": "Point", "coordinates": [-117.087208, 47.66533]}}, {"type": "Feature", "properties": {"Sites": "lidw", "state": "WA", "description": "Lind, Washington AgriMet Weather Station", "pval": 0.960551061397014}, "geometry": {"type": "Point", "coordinates": [-118.73943999999999, 46.86722]}}, {"type": "Feature", "properties": {"Sites": "lkpo", "state": "OR", "description": "Lookout Point Dam Weather Station, Oregon", "pval": 0.8565959295188539}, "geometry": {"type": "Point", "coordinates": [-122.7527777, 43.9166666]}}, {"type": "Feature", "properties": {"Sites": "loro", "state": "OR", "description": "Lorella, Oregon AgriMet Weather Station", "pval": 0.8565959295188539}, "geometry": {"type": "Point", "coordinates": [-121.22416000000001, 42.07777]}}, {"type": "Feature", "properties": {"Sites": "mali", "state": "ID", "description": "Malta, Idaho AgriMet Weather Station", "pval": 0.9992754246783326}, "geometry": {"type": "Point", "coordinates": [-113.41388, 42.4375]}}, {"type": "Feature", "properties": {"Sites": "masw", "state": "WA", "description": "Manson, Washington AgriMet Weather Station", "pval": 0.6319054630236633}, "geometry": {"type": "Point", "coordinates": [-120.12443999999999, 47.916940000000004]}}, {"type": "Feature", "properties": {"Sites": "mdfo", "state": "OR", "description": "Medford, Oregon AgriMet Weather Station", "pval": 0.9903681363845411}, "geometry": {"type": "Point", "coordinates": [-122.93777, 42.331109999999995]}}, {"type": "Feature", "properties": {"Sites": "mdki", "state": "ID", "description": "INL - Minidoka,  Idaho Weather Station", "pval": 0.5656438941821585}, "geometry": {"type": "Point", "coordinates": [-113.58965, 42.804417]}}, {"type": "Feature", "properties": {"Sites": "mdxo", "state": "OR", "description": "Moody Farms Control Station, Oregon Weather Station", "pval": 0.7414464286583212}, "geometry": {"type": "Point", "coordinates": [-121.0683, 44.86912]}}, {"type": "Feature", "properties": {"Sites": "mnpi", "state": "ID", "description": "Montpelier, Idaho Weather Station", "pval": 0.9983875713044045}, "geometry": {"type": "Point", "coordinates": [-111.33773000000001, 42.25452]}}, {"type": "Feature", "properties": {"Sites": "mnti", "state": "ID", "description": "Monteview, Idaho Weather Station", "pval": 0.2935509219433244}, "geometry": {"type": "Point", "coordinates": [-112.5358333, 44.015]}}, {"type": "Feature", "properties": {"Sites": "mrso", "state": "OR", "description": "Madras, Oregon AgriMet Weather Station", "pval": 0.9683513655489192}, "geometry": {"type": "Point", "coordinates": [-121.14861, 44.68]}}, {"type": "Feature", "properties": {"Sites": "mwso", "state": "OR", "description": "Middle Warm Springs, Oregon Weather Station", "pval": 0.8845559734188505}, "geometry": {"type": "Point", "coordinates": [-121.1479, 44.854240000000004]}}, {"type": "Feature", "properties": {"Sites": "nmpi", "state": "ID", "description": "Nampa, Idaho AgriMet Weather Station", "pval": 0.9879432429990871}, "geometry": {"type": "Point", "coordinates": [-116.64527, 43.43722]}}, {"type": "Feature", "properties": {"Sites": "odsw", "state": "WA", "description": "Odessa, Washington AgriMet Weather Station", "pval": 0.8947682796273823}, "geometry": {"type": "Point", "coordinates": [-118.87861000000001, 47.30888]}}, {"type": "Feature", "properties": {"Sites": "omaw", "state": "WA", "description": "Omak, Washington AgriMet Weather Station", "pval": 0.9919794866521269}, "geometry": {"type": "Point", "coordinates": [-119.57611000000001, 48.4025]}}, {"type": "Feature", "properties": {"Sites": "onto", "state": "OR", "description": "Ontario, Oregon AgriMet Weather Station", "pval": 0.9889738699974374}, "geometry": {"type": "Point", "coordinates": [-117.01527, 43.97777]}}, {"type": "Feature", "properties": {"Sites": "osgi", "state": "ID", "description": "Osgood, Idaho AgriMet Weather Station", "pval": 0.9935953134588504}, "geometry": {"type": "Point", "coordinates": [-112.07568, 43.588840000000005]}}, {"type": "Feature", "properties": {"Sites": "owei", "state": "ID", "description": "INL - Howe, Idaho Weather Station", "pval": 0.7810336209853573}, "geometry": {"type": "Point", "coordinates": [-112.977317, 43.784116999999995]}}, {"type": "Feature", "properties": {"Sites": "pcyo", "state": "OR", "description": "Prairie City, Oregon AgriMet Weather Station", "pval": 0.9623229882365251}, "geometry": {"type": "Point", "coordinates": [-118.62777, 44.44083]}}, {"type": "Feature", "properties": {"Sites": "pici", "state": "ID", "description": "Picabo, Idaho AgriMet Weather Station", "pval": 0.9973667507060943}, "geometry": {"type": "Point", "coordinates": [-114.16583, 43.311659999999996]}}, {"type": "Feature", "properties": {"Sites": "pmai", "state": "ID", "description": "Parma, Idaho AgriMet Weather Station", "pval": 0.9776100790861681}, "geometry": {"type": "Point", "coordinates": [-116.93333, 43.8]}}, {"type": "Feature", "properties": {"Sites": "pobo", "state": "OR", "description": "Powell Butte, Oregon AgriMet Weather Station", "pval": 0.6949363891611473}, "geometry": {"type": "Point", "coordinates": [-120.94972, 44.248329999999996]}}, {"type": "Feature", "properties": {"Sites": "psfi", "state": "ID", "description": "Post Falls, Idaho Weather Station", "pval": 0.9996005410449191}, "geometry": {"type": "Point", "coordinates": [-116.970096, 47.713664]}}, {"type": "Feature", "properties": {"Sites": "psti", "state": "ID", "description": "Preston, Idaho Weather Station", "pval": 0.9997771079349509}, "geometry": {"type": "Point", "coordinates": [-111.89363, 42.10715]}}, {"type": "Feature", "properties": {"Sites": "rgbi", "state": "ID", "description": "Rigby, Idaho AgriMet Weather Station", "pval": 0.9974030052627537}, "geometry": {"type": "Point", "coordinates": [-111.87921999999999, 43.6772]}}, {"type": "Feature", "properties": {"Sites": "robi", "state": "ID", "description": "INL - Roberts,  Idaho Weather Station", "pval": 0.8357719804569399}, "geometry": {"type": "Point", "coordinates": [-112.121117, 43.743517]}}, {"type": "Feature", "properties": {"Sites": "rpti", "state": "ID", "description": "Rupert, Idaho AgriMet Weather Station", "pval": 0.9847092748510446}, "geometry": {"type": "Point", "coordinates": [-113.87388, 42.59555]}}, {"type": "Feature", "properties": {"Sites": "rrci", "state": "ID", "description": "INL - Arco,  Idaho Weather Station", "pval": 0.992057082520654}, "geometry": {"type": "Point", "coordinates": [-113.2971, 43.62455]}}, {"type": "Feature", "properties": {"Sites": "rrii", "state": "ID", "description": "Ririe, Idaho AgriMet Weather Station", "pval": 0.9960378561105068}, "geometry": {"type": "Point", "coordinates": [-111.70060500000001, 43.610345]}}, {"type": "Feature", "properties": {"Sites": "rthi", "state": "ID", "description": "Rathdrum Prairie, Idaho AgriMet Weather Station", "pval": 0.9997715123766187}, "geometry": {"type": "Point", "coordinates": [-116.83333, 47.8]}}, {"type": "Feature", "properties": {"Sites": "rxgi", "state": "ID", "description": "Rexburg, Idaho AgriMet Weather Station ", "pval": 0.9922416731430198}, "geometry": {"type": "Point", "coordinates": [-111.76666000000002, 43.85]}}, {"type": "Feature", "properties": {"Sites": "sbmw", "state": "WA", "description": "Seven Bays Marina, Washington AgriMet Weather Station", "pval": 0.9127671635698112}, "geometry": {"type": "Point", "coordinates": [-118.34111000000001, 47.855270000000004]}}, {"type": "Feature", "properties": {"Sites": "shli", "state": "ID", "description": "Shelley, Idaho Weather Station", "pval": 0.993956439156199}, "geometry": {"type": "Point", "coordinates": [-112.14273, 43.43452]}}, {"type": "Feature", "properties": {"Sites": "silw", "state": "WA", "description": "Silcott Island, Washington AgriMet Weather Station", "pval": 0.9853953074008678}, "geometry": {"type": "Point", "coordinates": [-117.18472, 46.41861]}}, {"type": "Feature", "properties": {"Sites": "slwi", "state": "ID", "description": "Silverwood WWTP Athol, Idaho Weather Station", "pval": 0.9983684631722285}, "geometry": {"type": "Point", "coordinates": [-116.71243, 47.901142]}}, {"type": "Feature", "properties": {"Sites": "spli", "state": "ID", "description": "Spirit Lake, Washington Weather Station", "pval": 0.9999670075890105}, "geometry": {"type": "Point", "coordinates": [-116.884978, 47.987552]}}, {"type": "Feature", "properties": {"Sites": "sugi", "state": "ID", "description": "INL - Sugar City,  Idaho Weather Station", "pval": 0.7416380859894598}, "geometry": {"type": "Point", "coordinates": [-111.73761699999999, 43.896583]}}, {"type": "Feature", "properties": {"Sites": "tabi", "state": "ID", "description": "INL - Taber,  Idaho Weather Station", "pval": 0.5887741290211967}, "geometry": {"type": "Point", "coordinates": [-112.6918, 43.318683]}}, {"type": "Feature", "properties": {"Sites": "teri", "state": "ID", "description": "INL - Terreton,  Idaho Weather Station", "pval": 0.5493389149882193}, "geometry": {"type": "Point", "coordinates": [-112.41825, 43.841683]}}, {"type": "Feature", "properties": {"Sites": "tfgi", "state": "ID", "description": "Twin Falls Fairgrounds, Filer Idaho", "pval": 0.29585808976283806}, "geometry": {"type": "Point", "coordinates": [-114.601548, 42.568782]}}, {"type": "Feature", "properties": {"Sites": "trti", "state": "ID", "description": "Terraton, Idaho AgriMet Weather Station", "pval": 0.2637049610741319}, "geometry": {"type": "Point", "coordinates": [-112.26393999999999, 43.8704]}}, {"type": "Feature", "properties": {"Sites": "wrdo", "state": "OR", "description": "Worden, Oregon AgriMet Weather Station", "pval": 0.9818790605640558}, "geometry": {"type": "Point", "coordinates": [-121.7875, 42.0125]}}]}